{"ttl": 10, "last_updated": 1543259327, "data": {"stations": [{"address": "Kaigaten", "capacity": 19, "station_id": "223", "name": "R\u00e5dhuset", "lon": 5.327895003562276, "lat": 60.39168071231371}, {"address": "M\u00e5sekj\u00e6ret", "capacity": 10, "station_id": "222", "name": "Sandviken Brygge", "lon": 5.320473627367278, "lat": 60.41292872155995}, {"address": "sandvikstorget 11", "capacity": 19, "station_id": "221", "name": "Sandvikstorget", "lon": 5.322648583141813, "lat": 60.408582102784685}, {"address": "M\u00f8llendalsveien 60", "capacity": 16, "station_id": "220", "name": "M\u00f8llendalsplass", "lon": 5.3519936304809335, "lat": 60.379685765470725}, {"address": "Jonsvollsgaten ", "capacity": 19, "station_id": "219", "name": "Jonsvollkvartalet", "lon": 5.317308285189142, "lat": 60.39267683527631}, {"address": "C Sundsgate", "capacity": 10, "station_id": "217", "name": "Nykirken", "lon": 5.3140013115007605, "lat": 60.39723758526031}, {"address": "Sydnesplassen", "capacity": 25, "station_id": "216", "name": "Johanneskirken", "lon": 5.318665231464365, "lat": 60.38853002489311}, {"address": "Kaigaten 5 ved Vincent Lounge", "capacity": 37, "station_id": "215", "name": "Nonneseterplass", "lon": 5.3336050852019525, "lat": 60.38967202352878}, {"address": "Nyg\u00e5rdsgaten", "capacity": 19, "station_id": "214", "name": "Media City", "lon": 5.333450454511649, "lat": 60.3839343833222}, {"address": "Klosteret 17", "capacity": 10, "station_id": "212", "name": "Klosteret", "lon": 5.314946630388022, "lat": 60.395137943082446}, {"address": "Jahnebakken", "capacity": 25, "station_id": "157", "name": "H\u00f8yteknologisenteret", "lon": 5.3323324699108525, "lat": 60.382254745562825}, {"address": "Allehelgens gate", "capacity": 20, "station_id": "156", "name": "Allehelgens plass", "lon": 5.328976911981613, "lat": 60.39265146337743}, {"address": "Sm\u00e5strandgaten 3", "capacity": 26, "station_id": "151", "name": "Sm\u00e5strandgaten", "lon": 5.327022724925882, "lat": 60.39309812241306}, {"address": "Sj\u00f8gaten 2A", "capacity": 10, "station_id": "140", "name": "Sandviksbodene", "lon": 5.323373526334763, "lat": 60.40569501689435}, {"address": "Str\u00f8mgaten / Zander Kaaes gate.", "capacity": 17, "station_id": "83", "name": "Bergen jernbanestasjon", "lon": 5.332439659978263, "lat": 60.39032443075989}, {"address": "Engen1", "capacity": 10, "station_id": "82", "name": "Den Nationale Scene", "lon": 5.320185176096857, "lat": 60.39245536165015}, {"address": "M\u00f8llendalsveien 52", "capacity": 31, "station_id": "24", "name": "Studentboligene", "lon": 5.350818157212416, "lat": 60.378024641518735}, {"address": "Gulating plass 1", "capacity": 13, "station_id": "131", "name": "Gulating", "lon": 5.32661819461282, "lat": 60.391983600413376}, {"address": "Lungeg\u00e5rdskaien", "capacity": 19, "station_id": "87", "name": "ADO arena", "lon": 5.337431780062616, "lat": 60.38543124330305}, {"address": "Sukkerhusbryggen", "capacity": 37, "station_id": "132", "name": "N\u00f8stetorget", "lon": 5.31489050385062, "lat": 60.39234269953708}, {"address": "Jonas Lie vei", "capacity": 19, "station_id": "8", "name": "Haukeland sykehus", "lon": 5.35659456239955, "lat": 60.373637920628255}, {"address": "Inndalsveien 28", "capacity": 25, "station_id": "33", "name": "H\u00f8gskulen p\u00e5 Vestlandet", "lon": 5.349443793165847, "lat": 60.369179844976586}, {"address": "Parkveien 1", "capacity": 31, "station_id": "49", "name": "Studentsenteret UIB", "lon": 5.322980046239536, "lat": 60.38719801795013}, {"address": "Thorm\u00f8hlens gate", "capacity": 25, "station_id": "34", "name": "Cornerteateret", "lon": 5.325332343545597, "lat": 60.382595986001995}, {"address": "Neumannsgate", "capacity": 31, "station_id": "7", "name": "Neumannsgate", "lon": 5.31889235970084, "lat": 60.39145484865607}, {"address": "Rasmus Meyers alle", "capacity": 25, "station_id": "116", "name": "Lysverket", "lon": 5.329622268545791, "lat": 60.389542524377724}, {"address": "Nordnesbakken 4", "capacity": 19, "station_id": "75", "name": "Akvariet", "lon": 5.304686307890734, "lat": 60.39987652272946}, {"address": "Solheims gaten", "capacity": 10, "station_id": "5", "name": "Solheimsviken", "lon": 5.335721728558383, "lat": 60.37711952025095}, {"address": "Ved USF", "capacity": 19, "station_id": "117", "name": "Verftet", "lon": 5.307755827707297, "lat": 60.395877002094046}, {"address": "Vaklendorfsgaten 2", "capacity": 25, "station_id": "58", "name": "T\u00e5rnplass", "lon": 5.3217920958013565, "lat": 60.39375532002469}]}}
