{"ttl": 10, "last_updated": 1543259327, "data": {"stations": [{"address": "S. P. Andersens vei", "capacity": 18, "station_id": "293", "name": "S. P. Andersens vei", "lon": 10.405212902563903, "lat": 63.409888448864876}, {"address": "Mellomila", "capacity": 24, "station_id": "268", "name": "Ilabekken", "lon": 10.363873388291267, "lat": 63.43100197586592}, {"address": "Haakon VII gate 3", "capacity": 30, "station_id": "236", "name": "Lade idrettsanlegg vest", "lon": 10.444293346970085, "lat": 63.44596413856424}, {"address": "Dybdahls veg 2A", "capacity": 25, "station_id": "180", "name": "Berg Studentby", "lon": 10.414855613044438, "lat": 63.41364157249073}, {"address": "Festninggata 34", "capacity": 27, "station_id": "177", "name": "Kristiansten", "lon": 10.41660167758505, "lat": 63.42593349677826}, {"address": "Kongensgate 15", "capacity": 15, "station_id": "175", "name": "Torvet I", "lon": 10.392744433633425, "lat": 63.4304427209203}, {"address": "Fjordgata 16", "capacity": 25, "station_id": "148", "name": "Fjordgata", "lon": 10.403396522008734, "lat": 63.43483884684911}, {"address": "Illevollen", "capacity": 13, "station_id": "47", "name": "Ilaparken", "lon": 10.369248388233245, "lat": 63.429289773431165}, {"address": "H\u00e5kon Magnussons gate 1A", "capacity": 18, "station_id": "4", "name": "Dalen hageby", "lon": 10.44872760772705, "lat": 63.43757529885024}, {"address": "Sorgenfriveien 7", "capacity": 13, "station_id": "10", "name": "Sorgenfri", "lon": 10.399830937385559, "lat": 63.40575407332705}, {"address": "Mellomveien 13", "capacity": 25, "station_id": "95", "name": "Trikkestallen p\u00e5 Lademoen", "lon": 10.430732667446136, "lat": 63.4387315071045}, {"address": "Stiklestadveien 1", "capacity": 16, "station_id": "65", "name": "Strandveikaia", "lon": 10.427939146757126, "lat": 63.44208952370503}, {"address": "Olav Magnussons veg 9", "capacity": 24, "station_id": "110", "name": "Valentinlyst", "lon": 10.441064536571503, "lat": 63.42545389268059}, {"address": "H\u00e5kon VIIs gate 10", "capacity": 25, "station_id": "97", "name": "H\u00e5kon VIIs gate 8-10", "lon": 10.4596146941185, "lat": 63.44073437153156}, {"address": "Otto Nielsens vei 4", "capacity": 32, "station_id": "89", "name": "Tyholtt\u00e5rnet", "lon": 10.42776882648468, "lat": 63.42225473306107}, {"address": "Stadsings Dahls gate 4B", "capacity": 26, "station_id": "16", "name": "Rosenborg skole", "lon": 10.416186667604165, "lat": 63.428597647344375}, {"address": "Falkenborgveien / Blomstadvegen", "capacity": 31, "station_id": "56", "name": "Falkenborg", "lon": 10.45697271823883, "lat": 63.4362775074396}, {"address": "H\u00f8yskoleveien", "capacity": 31, "station_id": "94", "name": "Gl\u00f8shaugen", "lon": 10.403602123260498, "lat": 63.41939366673445}, {"address": "Innherredsveien", "capacity": 25, "station_id": "18", "name": "M\u00f8llenberg", "lon": 10.419401004910469, "lat": 63.4358846800558}, {"address": "Innherredsveien 16A", "capacity": 43, "station_id": "1", "name": "Dokkparken", "lon": 10.411412715911865, "lat": 63.433509009133566}, {"address": "Erling skakkes gate 1", "capacity": 28, "station_id": "74", "name": "Erling Skakkes gate", "lon": 10.39928913116455, "lat": 63.42889745011402}, {"address": "Kl\u00e6buveien 55", "capacity": 25, "station_id": "123", "name": "Hesthagen", "lon": 10.399565398693085, "lat": 63.41541842278556}, {"address": "Nordre gate 23", "capacity": 38, "station_id": "20", "name": "Nordre gate ", "lon": 10.397391468286514, "lat": 63.433085554043984}, {"address": "Bratt\u00f8rkaia 17B", "capacity": 19, "station_id": "9", "name": "Bratt\u00f8rkaia", "lon": 10.39729356765747, "lat": 63.43740318294613}, {"address": "Bratt\u00f8rkaia 1", "capacity": 37, "station_id": "107", "name": "Pirbadet", "lon": 10.402169823646545, "lat": 63.44075835708318}, {"address": "Lilleg\u00e5rdsbakken 8", "capacity": 22, "station_id": "128", "name": "Lilleg\u00e5rdsbakken", "lon": 10.403797924518585, "lat": 63.42646180597998}, {"address": "Dyre Halses 1", "capacity": 31, "station_id": "108", "name": "Bassengbakken", "lon": 10.414788275957108, "lat": 63.43592006472795}, {"address": "Kl\u00e6buveien 125", "capacity": 22, "station_id": "86", "name": "Lerkendal", "lon": 10.40068656206131, "lat": 63.412525462202666}, {"address": "Prinsens gate 44", "capacity": 31, "station_id": "30", "name": "St Olavs gate", "lon": 10.390283614397049, "lat": 63.431170931099416}, {"address": "Prinsens gate 1", "capacity": 15, "station_id": "14", "name": "Nidarosdomen", "lon": 10.394589900970459, "lat": 63.42764485898629}, {"address": "Erling Skakkes gate 47A", "capacity": 25, "station_id": "62", "name": "Kalvskinnet", "lon": 10.389504432678223, "lat": 63.42792321730192}, {"address": "Maskinistgata 1", "capacity": 25, "station_id": "92", "name": "Dora I", "lon": 10.419105291366577, "lat": 63.43853720980968}, {"address": "Ilevollen/Osloveien", "capacity": 19, "station_id": "76", "name": "Ilevollen", "lon": 10.37181057035923, "lat": 63.42907021700727}, {"address": "Havnegata", "capacity": 22, "station_id": "31", "name": "Tollboden ", "lon": 10.40479302406311, "lat": 63.43928560696555}, {"address": "Kongens gate 99", "capacity": 22, "station_id": "51", "name": "Skansen", "lon": 10.37476971745491, "lat": 63.430403126559675}, {"address": "Kongens gate 14B", "capacity": 19, "station_id": "28", "name": "Kongens gate", "lon": 10.398100912570953, "lat": 63.43045711348886}, {"address": "Prinsens gate 2A", "capacity": 31, "station_id": "44", "name": "Prinsen kinosenter", "lon": 10.392784774303436, "lat": 63.42663458755783}, {"address": "Klostergata 1", "capacity": 25, "station_id": "41", "name": "Vollabakken ", "lon": 10.399269014596939, "lat": 63.42186711370097}, {"address": "Erling Skjalgsons gate 1", "capacity": 13, "station_id": "55", "name": "Finalebanen ", "lon": 10.39221078157425, "lat": 63.41978492000792}, {"address": "Professor Brochs gate 2", "capacity": 25, "station_id": "118", "name": "Abels gate", "lon": 10.396314561367035, "lat": 63.41614341778847}, {"address": "S\u00f8ndre gate 13", "capacity": 19, "station_id": "35", "name": "Cicignons plass ", "lon": 10.400386825203896, "lat": 63.432503742934855}, {"address": "Fjordgata 66", "capacity": 31, "station_id": "19", "name": "Jomfrugateallmenningen", "lon": 10.395468324422836, "lat": 63.434423074986874}, {"address": "Sj\u00f8gangen 4", "capacity": 47, "station_id": "105", "name": "Trondheim S", "lon": 10.399405807256699, "lat": 63.43605560561}, {"address": "Nedre Bakklandet 60", "capacity": 16, "station_id": "21", "name": "Bakke bru", "lon": 10.406996458768845, "lat": 63.43225182105721}, {"address": "\u00d8vre Bakklandet 66", "capacity": 25, "station_id": "52", "name": "Bakklandet", "lon": 10.403148829936981, "lat": 63.427946013768306}, {"address": "Kongens gate 19", "capacity": 28, "station_id": "126", "name": "Leutenhaven", "lon": 10.39144366979599, "lat": 63.42997362692187}, {"address": "Havnegata 1", "capacity": 13, "station_id": "66", "name": "Verftsbrua", "lon": 10.405813604593277, "lat": 63.43527713641004}, {"address": "Innherredsveien 61F", "capacity": 25, "station_id": "6", "name": "Lademoparken", "lon": 10.425844341516495, "lat": 63.43660495943216}, {"address": "Nonnegata 3", "capacity": 26, "station_id": "25", "name": "Thornesparken ", "lon": 10.412772931158543, "lat": 63.43289961569575}]}}
